{
"type": "FeatureCollection",
"crs": { "type": "name", "properties": { "name": "urn:ogc:def:crs:OGC:1.3:CRS84" } },
                                                                                
"features": [
{ "type": "Feature", "properties": { "id": 33, "Nombre": "Floristeria Rosella", "Tipo": "Floristeria", "id_2": 1, "Nombre_2": "Santiago" }, "geometry": { "type": "Point", "coordinates": [ -84.313892061695398, 9.84769849692478 ] } },
{ "type": "Feature", "properties": { "id": 32, "Nombre": "Pali", "Tipo": "Supermercado", "id_2": 1, "Nombre_2": "Santiago" }, "geometry": { "type": "Point", "coordinates": [ -84.313693820085817, 9.847405515760304 ] } },
{ "type": "Feature", "properties": { "id": 31, "Nombre": "Tire Kingdom", "Tipo": "Taller Mecanico", "id_2": 1, "Nombre_2": "Santiago" }, "geometry": { "type": "Point", "coordinates": [ -84.313255601790928, 9.847821857337287 ] } },
{ "type": "Feature", "properties": { "id": 30, "Nombre": "Ferreteria Muñoz", "Tipo": "Ferreteria", "id_2": 1, "Nombre_2": "Santiago" }, "geometry": { "type": "Point", "coordinates": [ -84.31184704298586, 9.847652236758048 ] } },
{ "type": "Feature", "properties": { "id": 29, "Nombre": "Bodega Economica", "Tipo": "Tienda de Regalos", "id_2": 1, "Nombre_2": "Santiago" }, "geometry": { "type": "Point", "coordinates": [ -84.313229517368612, 9.848068578023987 ] } },
{ "type": "Feature", "properties": { "id": 27, "Nombre": "Abastecedor Los bomberos", "Tipo": "Tienda de Alimentos", "id_2": 2, "Nombre_2": "Santa Cecilia" }, "geometry": { "type": "Point", "coordinates": [ -84.311117983382161, 9.847076554142891 ] } },
{ "type": "Feature", "properties": { "id": 24, "Nombre": "Abastecedor Popular", "Tipo": "Tienda de Alimentos", "id_2": 2, "Nombre_2": "Santa Cecilia" }, "geometry": { "type": "Point", "coordinates": [ -84.308414246824711, 9.848254934385787 ] } },
{ "type": "Feature", "properties": { "id": 23, "Nombre": "Super Llery", "Tipo": "Tienda de Alimentos", "id_2": 2, "Nombre_2": "Santa Cecilia" }, "geometry": { "type": "Point", "coordinates": [ -84.30291899677816, 9.847773363474273 ] } },
{ "type": "Feature", "properties": { "id": 22, "Nombre": "Pulperia Los Mangos", "Tipo": "Tienda de Alimentos", "id_2": 2, "Nombre_2": "Santa Cecilia" }, "geometry": { "type": "Point", "coordinates": [ -84.304292992044537, 9.85021324122328 ] } },
{ "type": "Feature", "properties": { "id": 16, "Nombre": "Abastecedor Los Valles", "Tipo": "Tienda de Alimentos", "id_2": 5, "Nombre_2": "San Antonio" }, "geometry": { "type": "Point", "coordinates": [ -84.297383219617913, 9.862177313918293 ] } },
{ "type": "Feature", "properties": { "id": 15, "Nombre": "Abastecedor Ureña", "Tipo": "Tienda de Alimentos", "id_2": 5, "Nombre_2": "San Antonio" }, "geometry": { "type": "Point", "coordinates": [ -84.297449084463395, 9.857402852994902 ] } },
{ "type": "Feature", "properties": { "id": 106, "Nombre": "Veterinaria Dr.Carolina", "Tipo": "Veterinaria", "id_2": 27, "Nombre_2": "Barrio La Luz" }, "geometry": { "type": "Point", "coordinates": [ -84.340873133789088, 9.856657670248742 ] } },
{ "type": "Feature", "properties": { "id": 105, "Nombre": "Abastecedor La Hilda", "Tipo": "Tienda de Alimentos", "id_2": 12, "Nombre_2": "Carit" }, "geometry": { "type": "Point", "coordinates": [ -84.336608332979338, 9.854623956204996 ] } },
{ "type": "Feature", "properties": { "id": 104, "Nombre": "Pulperia Katerine", "Tipo": "Tienda de Alimentos", "id_2": 1, "Nombre_2": "Santiago" }, "geometry": { "type": "Point", "coordinates": [ -84.315886867891948, 9.850244723593056 ] } },
{ "type": "Feature", "properties": { "id": 103, "Nombre": "Chistina Shoes", "Tipo": "Zapateria", "id_2": 1, "Nombre_2": "Santiago" }, "geometry": { "type": "Point", "coordinates": [ -84.31575644578038, 9.846153275352148 ] } },
{ "type": "Feature", "properties": { "id": 101, "Nombre": "Zapateria Carlos", "Tipo": "Zapateria", "id_2": 54, "Nombre_2": "Pozos" }, "geometry": { "type": "Point", "coordinates": [ -84.316643316139121, 9.846060754579401 ] } },
{ "type": "Feature", "properties": { "id": 101, "Nombre": "Zapateria Carlos", "Tipo": "Zapateria", "id_2": 1, "Nombre_2": "Santiago" }, "geometry": { "type": "Point", "coordinates": [ -84.316643316139121, 9.846060754579401 ] } },
{ "type": "Feature", "properties": { "id": 100, "Nombre": "Impotadora Monge", "Tipo": "Tienda Electrodomesticos", "id_2": 1, "Nombre_2": "Santiago" }, "geometry": { "type": "Point", "coordinates": [ -84.316262483573311, 9.846929420813368 ] } },
{ "type": "Feature", "properties": { "id": 99, "Nombre": "Verdureria Buen Precio", "Tipo": "Verdureria", "id_2": 1, "Nombre_2": "Santiago" }, "geometry": { "type": "Point", "coordinates": [ -84.316283351111153, 9.846549058365026 ] } },
{ "type": "Feature", "properties": { "id": 98, "Nombre": "Veterinaria Alex", "Tipo": "Veterinaria", "id_2": 1, "Nombre_2": "Santiago" }, "geometry": { "type": "Point", "coordinates": [ -84.316523327796446, 9.846271496301792 ] } },
{ "type": "Feature", "properties": { "id": 97, "Nombre": "Estetica Nueva Piel", "Tipo": "Peluqueria", "id_2": 14, "Nombre_2": "Barrio Mercedes Norte" }, "geometry": { "type": "Point", "coordinates": [ -84.317941776761629, 9.846512971442971 ] } },
{ "type": "Feature", "properties": { "id": 102, "Nombre": "Detalles Vito", "Tipo": "Tienda de Regalos", "id_2": 14, "Nombre_2": "Barrio Mercedes Norte" }, "geometry": { "type": "Point", "coordinates": [ -84.316687659657049, 9.845621280554806 ] } },
{ "type": "Feature", "properties": { "id": 102, "Nombre": "Detalles Vito", "Tipo": "Tienda de Regalos", "id_2": 54, "Nombre_2": "Pozos" }, "geometry": { "type": "Point", "coordinates": [ -84.316687659657049, 9.845621280554806 ] } },
{ "type": "Feature", "properties": { "id": 96, "Nombre": "Libreria Tipica", "Tipo": "Libreria", "id_2": 14, "Nombre_2": "Barrio Mercedes Norte" }, "geometry": { "type": "Point", "coordinates": [ -84.316034896988597, 9.844482114899089 ] } },
{ "type": "Feature", "properties": { "id": 96, "Nombre": "Libreria Tipica", "Tipo": "Libreria", "id_2": 54, "Nombre_2": "Pozos" }, "geometry": { "type": "Point", "coordinates": [ -84.316034896988597, 9.844482114899089 ] } },
{ "type": "Feature", "properties": { "id": 95, "Nombre": "Monturas Tuto", "Tipo": "Talabarteria", "id_2": 14, "Nombre_2": "Barrio Mercedes Norte" }, "geometry": { "type": "Point", "coordinates": [ -84.316105324928856, 9.8444409943507 ] } },
{ "type": "Feature", "properties": { "id": 95, "Nombre": "Monturas Tuto", "Tipo": "Talabarteria", "id_2": 54, "Nombre_2": "Pozos" }, "geometry": { "type": "Point", "coordinates": [ -84.316105324928856, 9.8444409943507 ] } },
{ "type": "Feature", "properties": { "id": 94, "Nombre": "FINATEX", "Tipo": "Tienda de Ropa", "id_2": 14, "Nombre_2": "Barrio Mercedes Norte" }, "geometry": { "type": "Point", "coordinates": [ -84.315853605184685, 9.845240023534913 ] } },
{ "type": "Feature", "properties": { "id": 94, "Nombre": "FINATEX", "Tipo": "Tienda de Ropa", "id_2": 54, "Nombre_2": "Pozos" }, "geometry": { "type": "Point", "coordinates": [ -84.315853605184685, 9.845240023534913 ] } },
{ "type": "Feature", "properties": { "id": 93, "Nombre": "Video-Intenet", "Tipo": "VideoClub", "id_2": 14, "Nombre_2": "Barrio Mercedes Norte" }, "geometry": { "type": "Point", "coordinates": [ -84.315956676430005, 9.84525019697915 ] } },
{ "type": "Feature", "properties": { "id": 93, "Nombre": "Video-Intenet", "Tipo": "VideoClub", "id_2": 54, "Nombre_2": "Pozos" }, "geometry": { "type": "Point", "coordinates": [ -84.315956676430005, 9.84525019697915 ] } },
{ "type": "Feature", "properties": { "id": 92, "Nombre": "Academia de Musica", "Tipo": "Tienda de Musica", "id_2": 14, "Nombre_2": "Barrio Mercedes Norte" }, "geometry": { "type": "Point", "coordinates": [ -84.316060797593877, 9.84527486280272 ] } },
{ "type": "Feature", "properties": { "id": 92, "Nombre": "Academia de Musica", "Tipo": "Tienda de Musica", "id_2": 54, "Nombre_2": "Pozos" }, "geometry": { "type": "Point", "coordinates": [ -84.316060797593877, 9.84527486280272 ] } },
{ "type": "Feature", "properties": { "id": 92, "Nombre": "Carniceria la Puriscaleña", "Tipo": "Carniceria", "id_2": 14, "Nombre_2": "Barrio Mercedes Norte" }, "geometry": { "type": "Point", "coordinates": [ -84.316012178847359, 9.845262119330993 ] } },
{ "type": "Feature", "properties": { "id": 92, "Nombre": "Carniceria la Puriscaleña", "Tipo": "Carniceria", "id_2": 54, "Nombre_2": "Pozos" }, "geometry": { "type": "Point", "coordinates": [ -84.316012178847359, 9.845262119330993 ] } },
{ "type": "Feature", "properties": { "id": 91, "Nombre": "Talabarteria El Llano", "Tipo": "Talabarteria", "id_2": 14, "Nombre_2": "Barrio Mercedes Norte" }, "geometry": { "type": "Point", "coordinates": [ -84.31634827769048, 9.84488856949455 ] } },
{ "type": "Feature", "properties": { "id": 91, "Nombre": "Talabarteria El Llano", "Tipo": "Talabarteria", "id_2": 54, "Nombre_2": "Pozos" }, "geometry": { "type": "Point", "coordinates": [ -84.31634827769048, 9.84488856949455 ] } },
{ "type": "Feature", "properties": { "id": 90, "Nombre": "Agro Comercial Puriscal", "Tipo": "AgroComericial", "id_2": 14, "Nombre_2": "Barrio Mercedes Norte" }, "geometry": { "type": "Point", "coordinates": [ -84.316165319100165, 9.845262119331274 ] } },
{ "type": "Feature", "properties": { "id": 90, "Nombre": "Agro Comercial Puriscal", "Tipo": "AgroComericial", "id_2": 54, "Nombre_2": "Pozos" }, "geometry": { "type": "Point", "coordinates": [ -84.316165319100165, 9.845262119331274 ] } },
{ "type": "Feature", "properties": { "id": 89, "Nombre": "Joyeria Solis", "Tipo": "Joyeria", "id_2": 1, "Nombre_2": "Santiago" }, "geometry": { "type": "Point", "coordinates": [ -84.315312358490473, 9.845836520099017 ] } },
{ "type": "Feature", "properties": { "id": 88, "Nombre": "Ciclo El Volcan", "Tipo": "Ciclo", "id_2": 1, "Nombre_2": "Santiago" }, "geometry": { "type": "Point", "coordinates": [ -84.315492341004443, 9.845790259671507 ] } },
{ "type": "Feature", "properties": { "id": 87, "Nombre": "Casa Blanca", "Tipo": "Electrodomesticos", "id_2": 1, "Nombre_2": "Santiago" }, "geometry": { "type": "Point", "coordinates": [ -84.315818396283376, 9.846160342910109 ] } },
{ "type": "Feature", "properties": { "id": 86, "Nombre": "Tienda Sol", "Tipo": "Tienda de Ropa", "id_2": 1, "Nombre_2": "Santiago" }, "geometry": { "type": "Point", "coordinates": [ -84.315682757287348, 9.846144922783445 ] } },
{ "type": "Feature", "properties": { "id": 13, "Nombre": "Tienda la Fama", "Tipo": "Tienda de Ropa", "id_2": 1, "Nombre_2": "Santiago" }, "geometry": { "type": "Point", "coordinates": [ -84.31543234683312, 9.846119222570748 ] } },
{ "type": "Feature", "properties": { "id": 14, "Nombre": "Carniceria Popo", "Tipo": "Carniceria", "id_2": 14, "Nombre_2": "Barrio Mercedes Norte" }, "geometry": { "type": "Point", "coordinates": [ -84.316248789251588, 9.845533257178387 ] } },
{ "type": "Feature", "properties": { "id": 14, "Nombre": "Carniceria Popo", "Tipo": "Carniceria", "id_2": 54, "Nombre_2": "Pozos" }, "geometry": { "type": "Point", "coordinates": [ -84.316248789251588, 9.845533257178387 ] } },
{ "type": "Feature", "properties": { "id": 25, "Nombre": "Zapateria Valeska", "Tipo": "Zapateria", "id_2": 14, "Nombre_2": "Barrio Mercedes Norte" }, "geometry": { "type": "Point", "coordinates": [ -84.316037505430828, 9.845510126944186 ] } },
{ "type": "Feature", "properties": { "id": 25, "Nombre": "Zapateria Valeska", "Tipo": "Zapateria", "id_2": 54, "Nombre_2": "Pozos" }, "geometry": { "type": "Point", "coordinates": [ -84.316037505430828, 9.845510126944186 ] } },
{ "type": "Feature", "properties": { "id": 26, "Nombre": "Tienda El Buen Precio", "Tipo": "Tienda de Regalos", "id_2": 14, "Nombre_2": "Barrio Mercedes Norte" }, "geometry": { "type": "Point", "coordinates": [ -84.316060981410914, 9.845510126944186 ] } },
{ "type": "Feature", "properties": { "id": 26, "Nombre": "Tienda El Buen Precio", "Tipo": "Tienda de Regalos", "id_2": 54, "Nombre_2": "Pozos" }, "geometry": { "type": "Point", "coordinates": [ -84.316060981410914, 9.845510126944186 ] } },
{ "type": "Feature", "properties": { "id": 28, "Nombre": "Tienda Demoda", "Tipo": "Tienda de Ropa", "id_2": 14, "Nombre_2": "Barrio Mercedes Norte" }, "geometry": { "type": "Point", "coordinates": [ -84.316240747399505, 9.845594042235978 ] } },
{ "type": "Feature", "properties": { "id": 28, "Nombre": "Tienda Demoda", "Tipo": "Tienda de Ropa", "id_2": 54, "Nombre_2": "Pozos" }, "geometry": { "type": "Point", "coordinates": [ -84.316240747399505, 9.845594042235978 ] } },
{ "type": "Feature", "properties": { "id": 67, "Nombre": "Tienda Bodegon", "Tipo": "Tienda de Regalos", "id_2": 1, "Nombre_2": "Santiago" }, "geometry": { "type": "Point", "coordinates": [ -84.316316608749602, 9.846111512506555 ] } },
{ "type": "Feature", "properties": { "id": 72, "Nombre": "Carniceria Flor", "Tipo": "Carniceria", "id_2": 1, "Nombre_2": "Santiago" }, "geometry": { "type": "Point", "coordinates": [ -84.316324434076307, 9.846211743327107 ] } },
{ "type": "Feature", "properties": { "id": 79, "Nombre": "Carniceria Dago", "Tipo": "Carniceria", "id_2": 1, "Nombre_2": "Santiago" }, "geometry": { "type": "Point", "coordinates": [ -84.316321825634077, 9.846242583573451 ] } },
{ "type": "Feature", "properties": { "id": 85, "Nombre": "Super Mora", "Tipo": "Supermercado", "id_2": 54, "Nombre_2": "Pozos" }, "geometry": { "type": "Point", "coordinates": [ -84.316060981410914, 9.845731149115803 ] } },
{ "type": "Feature", "properties": { "id": 85, "Nombre": "Super Mora", "Tipo": "Supermercado", "id_2": 1, "Nombre_2": "Santiago" }, "geometry": { "type": "Point", "coordinates": [ -84.316060981410914, 9.845731149115803 ] } },
{ "type": "Feature", "properties": { "id": 84, "Nombre": "Tienda Pino #2", "Tipo": "Tienda de Ropa", "id_2": 1, "Nombre_2": "Santiago" }, "geometry": { "type": "Point", "coordinates": [ -84.316287915885056, 9.846453325179764 ] } },
{ "type": "Feature", "properties": { "id": 83, "Nombre": "Tienda Pino #1", "Tipo": "Tienda de Ropa", "id_2": 1, "Nombre_2": "Santiago" }, "geometry": { "type": "Point", "coordinates": [ -84.316431380207788, 9.84626314373609 ] } },
{ "type": "Feature", "properties": { "id": 82, "Nombre": "Piramide", "Tipo": "Tienda de Ropa", "id_2": 1, "Nombre_2": "Santiago" }, "geometry": { "type": "Point", "coordinates": [ -84.316152276889014, 9.846206603285763 ] } },
{ "type": "Feature", "properties": { "id": 81, "Nombre": "Libreria Judith", "Tipo": "Libreria", "id_2": 1, "Nombre_2": "Santiago" }, "geometry": { "type": "Point", "coordinates": [ -84.315570594271392, 9.846121792592106 ] } },
{ "type": "Feature", "properties": { "id": 80, "Nombre": "El Gallo mas gallo de Puriscal", "Tipo": "Tienda Electrodomesticos", "id_2": 54, "Nombre_2": "Pozos" }, "geometry": { "type": "Point", "coordinates": [ -84.314741109641744, 9.84547671660305 ] } },
{ "type": "Feature", "properties": { "id": 80, "Nombre": "El Gallo mas gallo de Puriscal", "Tipo": "Tienda Electrodomesticos", "id_2": 1, "Nombre_2": "Santiago" }, "geometry": { "type": "Point", "coordinates": [ -84.314741109641744, 9.84547671660305 ] } },
{ "type": "Feature", "properties": { "id": 78, "Nombre": "Carniceria La Central de Carnes", "Tipo": "Carniceria", "id_2": 54, "Nombre_2": "Pozos" }, "geometry": { "type": "Point", "coordinates": [ -84.315565377386918, 9.845240274092193 ] } },
{ "type": "Feature", "properties": { "id": 78, "Nombre": "Carniceria La Central de Carnes", "Tipo": "Carniceria", "id_2": 1, "Nombre_2": "Santiago" }, "geometry": { "type": "Point", "coordinates": [ -84.315565377386918, 9.845240274092193 ] } },
{ "type": "Feature", "properties": { "id": 77, "Nombre": "Video Club Karen", "Tipo": "VideoClub", "id_2": 1, "Nombre_2": "Santiago" }, "geometry": { "type": "Point", "coordinates": [ -84.313759031141572, 9.846129502656067 ] } },
{ "type": "Feature", "properties": { "id": 76, "Nombre": "CISA", "Tipo": "Seguridad", "id_2": 1, "Nombre_2": "Santiago" }, "geometry": { "type": "Point", "coordinates": [ -84.313629913251106, 9.846115367538671 ] } },
{ "type": "Feature", "properties": { "id": 75, "Nombre": "Cooperativa Agropecuaria Puriscal", "Tipo": "Cooperativa", "id_2": 1, "Nombre_2": "Santiago" }, "geometry": { "type": "Point", "coordinates": [ -84.315317575374934, 9.845799254755143 ] } },
{ "type": "Feature", "properties": { "id": 74, "Nombre": "Corporacion CAFADIKAES", "Tipo": "Tienda de Computo", "id_2": 54, "Nombre_2": "Pozos" }, "geometry": { "type": "Point", "coordinates": [ -84.31447244009189, 9.845249269190804 ] } },
{ "type": "Feature", "properties": { "id": 74, "Nombre": "Corporacion CAFADIKAES", "Tipo": "Tienda de Computo", "id_2": 1, "Nombre_2": "Santiago" }, "geometry": { "type": "Point", "coordinates": [ -84.31447244009189, 9.845249269190804 ] } },
{ "type": "Feature", "properties": { "id": 73, "Nombre": "Libreria El Estudiante", "Tipo": "Libreria", "id_2": 54, "Nombre_2": "Pozos" }, "geometry": { "type": "Point", "coordinates": [ -84.314456789438509, 9.845355925341485 ] } },
{ "type": "Feature", "properties": { "id": 73, "Nombre": "Libreria El Estudiante", "Tipo": "Libreria", "id_2": 1, "Nombre_2": "Santiago" }, "geometry": { "type": "Point", "coordinates": [ -84.314456789438509, 9.845355925341485 ] } },
{ "type": "Feature", "properties": { "id": 71, "Nombre": "Ferreteria El Santo", "Tipo": "Ferreteria", "id_2": 1, "Nombre_2": "Santiago" }, "geometry": { "type": "Point", "coordinates": [ -84.314373319287114, 9.845916190820095 ] } },
{ "type": "Feature", "properties": { "id": 70, "Nombre": "Comercial San Lucia", "Tipo": "Tienda de Alimentos", "id_2": 1, "Nombre_2": "Santiago" }, "geometry": { "type": "Point", "coordinates": [ -84.314357668633704, 9.845998431544263 ] } },
{ "type": "Feature", "properties": { "id": 69, "Nombre": "Consultora del Mar", "Tipo": "Consultora", "id_2": 2, "Nombre_2": "Santa Cecilia" }, "geometry": { "type": "Point", "coordinates": [ -84.311681406904157, 9.846711611964988 ] } },
{ "type": "Feature", "properties": { "id": 68, "Nombre": "Teinda Americana Flory", "Tipo": "Tienda de Ropa", "id_2": 2, "Nombre_2": "Santa Cecilia" }, "geometry": { "type": "Point", "coordinates": [ -84.311587502983826, 9.84670647193143 ] } },
{ "type": "Feature", "properties": { "id": 21, "Nombre": "Muebleria San Juan", "Tipo": "Muebleria", "id_2": 1, "Nombre_2": "Santiago" }, "geometry": { "type": "Point", "coordinates": [ -84.313596003502113, 9.846444330113952 ] } },
{ "type": "Feature", "properties": { "id": 20, "Nombre": "Calzados Don Pedro", "Tipo": "Zapateria", "id_2": 1, "Nombre_2": "Santiago" }, "geometry": { "type": "Point", "coordinates": [ -84.313460364506057, 9.846470030301346 ] } },
{ "type": "Feature", "properties": { "id": 19, "Nombre": "Fotocopiadora El Liceo", "Tipo": "Fotocopiadora", "id_2": 1, "Nombre_2": "Santiago" }, "geometry": { "type": "Point", "coordinates": [ -84.313204737167368, 9.846798992523191 ] } },
{ "type": "Feature", "properties": { "id": 18, "Nombre": "Fotocopiadora Calinga", "Tipo": "Fotocopiadora", "id_2": 1, "Nombre_2": "Santiago" }, "geometry": { "type": "Point", "coordinates": [ -84.313282990434317, 9.84680413255531 ] } },
{ "type": "Feature", "properties": { "id": 60, "Nombre": "Heladeria Tannia", "Tipo": "Heladeria", "id_2": 1, "Nombre_2": "Santiago" }, "geometry": { "type": "Point", "coordinates": [ -84.313324725510029, 9.846798992523191 ] } },
{ "type": "Feature", "properties": { "id": 65, "Nombre": "Golosinas Danny", "Tipo": "Confiteria", "id_2": 1, "Nombre_2": "Santiago" }, "geometry": { "type": "Point", "coordinates": [ -84.313376894354661, 9.846793852490993 ] } },
{ "type": "Feature", "properties": { "id": 57, "Nombre": "Tienda Nalex", "Tipo": "Tienda de Ropa", "id_2": 1, "Nombre_2": "Santiago" }, "geometry": { "type": "Point", "coordinates": [ -84.31343428008374, 9.846788712458721 ] } },
{ "type": "Feature", "properties": { "id": 62, "Nombre": "Carniceria La Moderna", "Tipo": "Carniceria", "id_2": 1, "Nombre_2": "Santiago" }, "geometry": { "type": "Point", "coordinates": [ -84.313481232043927, 9.846213028337417 ] } },
{ "type": "Feature", "properties": { "id": 50, "Nombre": "Floristeria Arcoiris", "Tipo": "Floristeria", "id_2": 1, "Nombre_2": "Santiago" }, "geometry": { "type": "Point", "coordinates": [ -84.313945534761132, 9.846146207794021 ] } },
{ "type": "Feature", "properties": { "id": 43, "Nombre": "Botique Masiel", "Tipo": "Tienda de Ropa", "id_2": 1, "Nombre_2": "Santiago" }, "geometry": { "type": "Point", "coordinates": [ -84.313618175261055, 9.846180903078027 ] } },
{ "type": "Feature", "properties": { "id": 42, "Nombre": "Tienda Moda Color", "Tipo": "Tienda de Ropa", "id_2": 1, "Nombre_2": "Santiago" }, "geometry": { "type": "Point", "coordinates": [ -84.313470798274992, 9.846295268987644 ] } },
{ "type": "Feature", "properties": { "id": 17, "Nombre": "Sala De belleza Kathy", "Tipo": "Peluqueria", "id_2": 1, "Nombre_2": "Santiago" }, "geometry": { "type": "Point", "coordinates": [ -84.31343428008374, 9.846588251137558 ] } },
{ "type": "Feature", "properties": { "id": 9, "Nombre": "Repuestos San Juan", "Tipo": "Repuestos", "id_2": 1, "Nombre_2": "Santiago" }, "geometry": { "type": "Point", "coordinates": [ -84.312641313645358, 9.846711611964988 ] } },
{ "type": "Feature", "properties": { "id": 61, "Nombre": "Jugeteria Nuevo Mundo", "Tipo": "Jugueteria", "id_2": 1, "Nombre_2": "Santiago" }, "geometry": { "type": "Point", "coordinates": [ -84.314315933558007, 9.846763012296149 ] } },
{ "type": "Feature", "properties": { "id": 59, "Nombre": "Peluqueria Abigail", "Tipo": "Peluqueria", "id_2": 1, "Nombre_2": "Santiago" }, "geometry": { "type": "Point", "coordinates": [ -84.313987269836829, 9.846752732230561 ] } },
{ "type": "Feature", "properties": { "id": 58, "Nombre": "Tienda La moda", "Tipo": "Tienda de Ropa", "id_2": 1, "Nombre_2": "Santiago" }, "geometry": { "type": "Point", "coordinates": [ -84.314091607526109, 9.846876092996517 ] } },
{ "type": "Feature", "properties": { "id": 66, "Nombre": "Verduraria Delgado", "Tipo": "Verdureria", "id_2": 1, "Nombre_2": "Santiago" }, "geometry": { "type": "Point", "coordinates": [ -84.313575135964243, 9.846541990815387 ] } },
{ "type": "Feature", "properties": { "id": 56, "Nombre": "Internet Canal2", "Tipo": "Cafe Internet", "id_2": 1, "Nombre_2": "Santiago" }, "geometry": { "type": "Point", "coordinates": [ -84.313585569733178, 9.846624231383656 ] } },
{ "type": "Feature", "properties": { "id": 55, "Nombre": "Floristeria Piny", "Tipo": "Floristeria", "id_2": 1, "Nombre_2": "Santiago" }, "geometry": { "type": "Point", "coordinates": [ -84.313783811342788, 9.846824692682963 ] } },
{ "type": "Feature", "properties": { "id": 64, "Nombre": "Ferretaria Solis", "Tipo": "Ferreteria", "id_2": 1, "Nombre_2": "Santiago" }, "geometry": { "type": "Point", "coordinates": [ -84.313606437271034, 9.846829832714676 ] } },
{ "type": "Feature", "properties": { "id": 63, "Nombre": "Pinturas Sur", "Tipo": "Pinturas", "id_2": 1, "Nombre_2": "Santiago" }, "geometry": { "type": "Point", "coordinates": [ -84.312020504394269, 9.847667656814449 ] } },
{ "type": "Feature", "properties": { "id": 54, "Nombre": "Lanco", "Tipo": "Pinturas", "id_2": 1, "Nombre_2": "Santiago" }, "geometry": { "type": "Point", "coordinates": [ -84.313830763302946, 9.847703636942892 ] } },
{ "type": "Feature", "properties": { "id": 53, "Nombre": "Video Cali", "Tipo": "VideoClub", "id_2": 1, "Nombre_2": "Santiago" }, "geometry": { "type": "Point", "coordinates": [ -84.314258547828928, 9.847333555434499 ] } },
{ "type": "Feature", "properties": { "id": 52, "Nombre": "Tienda Gollo", "Tipo": "Tienda Electrodomesticos", "id_2": 1, "Nombre_2": "Santiago" }, "geometry": { "type": "Point", "coordinates": [ -84.314921092155743, 9.847127954417209 ] } },
{ "type": "Feature", "properties": { "id": 51, "Nombre": "Distribuidora K-Nela", "Tipo": "Confiteria", "id_2": 1, "Nombre_2": "Santiago" }, "geometry": { "type": "Point", "coordinates": [ -84.314816754466463, 9.847986337815579 ] } },
{ "type": "Feature", "properties": { "id": 49, "Nombre": "Turi", "Tipo": "Cafe Internet", "id_2": 1, "Nombre_2": "Santiago" }, "geometry": { "type": "Point", "coordinates": [ -84.314910658386808, 9.847996617842759 ] } },
{ "type": "Feature", "properties": { "id": 48, "Nombre": "Arayka", "Tipo": "Peluqueria", "id_2": 1, "Nombre_2": "Santiago" }, "geometry": { "type": "Point", "coordinates": [ -84.315093249343022, 9.847436355895125 ] } },
{ "type": "Feature", "properties": { "id": 46, "Nombre": "Compu Yeco", "Tipo": "Tienda de Computo", "id_2": 1, "Nombre_2": "Santiago" }, "geometry": { "type": "Point", "coordinates": [ -84.316199228849186, 9.847323275386684 ] } },
{ "type": "Feature", "properties": { "id": 47, "Nombre": "Centro de copias Puriscal", "Tipo": "Fotocopiadora", "id_2": 1, "Nombre_2": "Santiago" }, "geometry": { "type": "Point", "coordinates": [ -84.316115758697791, 9.848053157986481 ] } },
{ "type": "Feature", "properties": { "id": 45, "Nombre": "Super Santiago", "Tipo": "Supermercado", "id_2": 1, "Nombre_2": "Santiago" }, "geometry": { "type": "Point", "coordinates": [ -84.315406262410818, 9.847631676682086 ] } },
{ "type": "Feature", "properties": { "id": 44, "Nombre": "Heladeria Diana", "Tipo": "Heladeria", "id_2": 1, "Nombre_2": "Santiago" }, "geometry": { "type": "Point", "coordinates": [ -84.315260189645841, 9.847431215872852 ] } },
{ "type": "Feature", "properties": { "id": 41, "Nombre": "Video Karens", "Tipo": "VideoClub", "id_2": 1, "Nombre_2": "Santiago" }, "geometry": { "type": "Point", "coordinates": [ -84.315687974171823, 9.847241034992569 ] } },
{ "type": "Feature", "properties": { "id": 40, "Nombre": "Tienda Sossa", "Tipo": "Tienda de Ropa", "id_2": 1, "Nombre_2": "Santiago" }, "geometry": { "type": "Point", "coordinates": [ -84.315776661207678, 9.847256455068026 ] } },
{ "type": "Feature", "properties": { "id": 39, "Nombre": "Distribuidora Jivis", "Tipo": "Tienda Electrodomesticos", "id_2": 1, "Nombre_2": "Santiago" }, "geometry": { "type": "Point", "coordinates": [ -84.316068806737619, 9.847302715290073 ] } },
{ "type": "Feature", "properties": { "id": 38, "Nombre": "Bazar Regalitos", "Tipo": "Tienda de Regalos", "id_2": 1, "Nombre_2": "Santiago" }, "geometry": { "type": "Point", "coordinates": [ -84.316042722315302, 9.847590556526013 ] } },
{ "type": "Feature", "properties": { "id": 10, "Nombre": "Macrobiotica Gaviotes", "Tipo": "Macrobiotica", "id_2": 1, "Nombre_2": "Santiago" }, "geometry": { "type": "Point", "coordinates": [ -84.316016637892986, 9.847719056996734 ] } },
{ "type": "Feature", "properties": { "id": 35, "Nombre": "Multi Respuestos", "Tipo": "Respuestos", "id_2": 1, "Nombre_2": "Santiago" }, "geometry": { "type": "Point", "coordinates": [ -84.316037505430842, 9.847631676682086 ] } },
{ "type": "Feature", "properties": { "id": 34, "Nombre": "Vidrios Bosco", "Tipo": "Tienda de Vidrios", "id_2": 1, "Nombre_2": "Santiago" }, "geometry": { "type": "Point", "coordinates": [ -84.316027071661921, 9.847662516795788 ] } },
{ "type": "Feature", "properties": { "id": 36, "Nombre": "Tienda Karol", "Tipo": "Tienda de Ropa", "id_2": 1, "Nombre_2": "Santiago" }, "geometry": { "type": "Point", "coordinates": [ -84.315899257992569, 9.84728215519219 ] } },
{ "type": "Feature", "properties": { "id": 37, "Nombre": "Tienda Marieta", "Tipo": "Tienda de Ropa", "id_2": 1, "Nombre_2": "Santiago" }, "geometry": { "type": "Point", "coordinates": [ -84.316141843120107, 9.847693356906591 ] } },
{ "type": "Feature", "properties": { "id": 7, "Nombre": "Deposito Maravilla", "Tipo": "Ferreteria", "id_2": 1, "Nombre_2": "Santiago" }, "geometry": { "type": "Point", "coordinates": [ -84.315777965428808, 9.848225348364503 ] } },
{ "type": "Feature", "properties": { "id": 4, "Nombre": "Deposito el Cedral", "Tipo": "Ferreteria", "id_2": 1, "Nombre_2": "Santiago" }, "geometry": { "type": "Point", "coordinates": [ -84.315318879596049, 9.847814147312866 ] } },
{ "type": "Feature", "properties": { "id": 118, "Nombre": "Abastecedor El Oasis", "Tipo": "Tienda de Alimentos", "id_2": 9, "Nombre_2": "Grifo Alto" }, "geometry": { "type": "Point", "coordinates": [ -84.390337026068195, 9.88133530845978 ] } },
{ "type": "Feature", "properties": { "id": 117, "Nombre": "Abastecedor Brisas del Sur", "Tipo": "Tienda de Alimentos", "id_2": 9, "Nombre_2": "Grifo Alto" }, "geometry": { "type": "Point", "coordinates": [ -84.388902382840698, 9.877506363555359 ] } },
{ "type": "Feature", "properties": { "id": 115, "Nombre": "Verdureria Piedades", "Tipo": "Verdureria", "id_2": 8, "Nombre_2": "Piedades" }, "geometry": { "type": "Point", "coordinates": [ -84.363292697009214, 9.865862499696522 ] } },
{ "type": "Feature", "properties": { "id": 114, "Nombre": "Pulperia El Ahorito", "Tipo": "Tienda de Alimentos", "id_2": 8, "Nombre_2": "Piedades" }, "geometry": { "type": "Point", "coordinates": [ -84.355198700764049, 9.865083828919246 ] } },
{ "type": "Feature", "properties": { "id": 114, "Nombre": "Tienda Marielos", "Tipo": "Tienda de Variedades", "id_2": 7, "Nombre_2": "Barbacoas" }, "geometry": { "type": "Point", "coordinates": [ -84.349440564537403, 9.858530586110859 ] } },
{ "type": "Feature", "properties": { "id": 113, "Nombre": "Tienda y Bazar Kavi", "Tipo": "Tienda de Variedades", "id_2": 7, "Nombre_2": "Barbacoas" }, "geometry": { "type": "Point", "coordinates": [ -84.349450998306338, 9.858546005658626 ] } },
{ "type": "Feature", "properties": { "id": 113, "Nombre": "Frutasy VerdurasToto", "Tipo": "Tienda de Alimentos", "id_2": 7, "Nombre_2": "Barbacoas" }, "geometry": { "type": "Point", "coordinates": [ -84.349431434989611, 9.858516451524691 ] } },
{ "type": "Feature", "properties": { "id": 112, "Nombre": "Heladeria San Martin", "Tipo": "Heladeria", "id_2": 7, "Nombre_2": "Barbacoas" }, "geometry": { "type": "Point", "coordinates": [ -84.349464040517489, 9.858537010922332 ] } },
{ "type": "Feature", "properties": { "id": 111, "Nombre": "Carniceria San Isidro", "Tipo": "Carniceria", "id_2": 7, "Nombre_2": "Barbacoas" }, "geometry": { "type": "Point", "coordinates": [ -84.349556640216733, 9.858461198137023 ] } },
{ "type": "Feature", "properties": { "id": 110, "Nombre": "Mini Super La Colina", "Tipo": "Tienda de Alimentos", "id_2": 7, "Nombre_2": "Barbacoas" }, "geometry": { "type": "Point", "coordinates": [ -84.34956968242787, 9.858478866372392 ] } },
{ "type": "Feature", "properties": { "id": 109, "Nombre": "Libreria Nicolet", "Tipo": "Libreria", "id_2": 7, "Nombre_2": "Barbacoas" }, "geometry": { "type": "Point", "coordinates": [ -84.349466648959734, 9.857376366665759 ] } },
{ "type": "Feature", "properties": { "id": 108, "Nombre": "Tienda Giss", "Tipo": "Tienda de Ropa", "id_2": 7, "Nombre_2": "Barbacoas" }, "geometry": { "type": "Point", "coordinates": [ -84.349440564537431, 9.857255579760535 ] } },
{ "type": "Feature", "properties": { "id": 107, "Nombre": "Pulperia El recreo", "Tipo": "Tienda de Alimentos", "id_2": 7, "Nombre_2": "Barbacoas" }, "geometry": { "type": "Point", "coordinates": [ -84.349450998306352, 9.857301838580531 ] } },
{ "type": "Feature", "properties": { "id": 122, "Nombre": "Brequi's Fitness Gym", "Tipo": "Gimnasio", "id_2": 2, "Nombre_2": "Santa Cecilia" }, "geometry": { "type": "Point", "coordinates": [ -84.310148175409267, 9.845776078408713 ] } },
{ "type": "Feature", "properties": { "id": 121, "Nombre": "Lubricentro y Respuestos Araya", "Tipo": "Repuestos", "id_2": 2, "Nombre_2": "Santa Cecilia" }, "geometry": { "type": "Point", "coordinates": [ -84.309895205688633, 9.848006418175437 ] } },
{ "type": "Feature", "properties": { "id": 120, "Nombre": "Taller Hermanos Delgado", "Tipo": "Taller Mecanico", "id_2": 54, "Nombre_2": "Pozos" }, "geometry": { "type": "Point", "coordinates": [ -84.316670621504699, 9.83616591679953 ] } },
{ "type": "Feature", "properties": { "id": 120, "Nombre": "Taller Hermanos Delgado", "Tipo": "Taller Mecanico", "id_2": 3, "Nombre_2": "Barrio San Isidro" }, "geometry": { "type": "Point", "coordinates": [ -84.316670621504699, 9.83616591679953 ] } },
{ "type": "Feature", "properties": { "id": 120, "Nombre": "Abastecedor M&R", "Tipo": "Tienda de Alimentos", "id_2": 14, "Nombre_2": "Barrio Mercedes Norte" }, "geometry": { "type": "Point", "coordinates": [ -84.325631487072073, 9.837119236765789 ] } },
{ "type": "Feature", "properties": { "id": 120, "Nombre": "Abastecedor M&R", "Tipo": "Tienda de Alimentos", "id_2": 54, "Nombre_2": "Pozos" }, "geometry": { "type": "Point", "coordinates": [ -84.325631487072073, 9.837119236765789 ] } },
{ "type": "Feature", "properties": { "id": 128, "Nombre": "Pulperia las Gaviotas", "Tipo": "Tienda de Alimentos", "id_2": 54, "Nombre_2": "Pozos" }, "geometry": { "type": "Point", "coordinates": [ -84.297036780869135, 9.815285978516446 ] } },
{ "type": "Feature", "properties": { "id": 71, "Nombre": "Abastecedor Silvia", "Tipo": "Tienda de Alimentos", "id_2": 54, "Nombre_2": "Pozos" }, "geometry": { "type": "Point", "coordinates": [ -84.292884947928584, 9.804108612374735 ] } },
{ "type": "Feature", "properties": { "id": 129, "Nombre": "Enigma Store", "Tipo": "Tienda de Ropa", "id_2": 1, "Nombre_2": "Santiago" }, "geometry": { "type": "Point", "coordinates": [ -84.316729612104012, 9.846403126094286 ] } },
{ "type": "Feature", "properties": { "id": 128, "Nombre": "Tienda los Reyes", "Tipo": "Tienda de Ropa", "id_2": 1, "Nombre_2": "Santiago" }, "geometry": { "type": "Point", "coordinates": [ -84.315869153251029, 9.846147095209705 ] } },
{ "type": "Feature", "properties": { "id": 130, "Nombre": "Peluqueria Mayela", "Tipo": "Peluqueria", "id_2": 7, "Nombre_2": "Barbacoas" }, "geometry": { "type": "Point", "coordinates": [ -84.349661592874881, 9.85777455833229 ] } },
{ "type": "Feature", "properties": { "id": 157, "Nombre": "Panaderia Lucy", "Tipo": "Panaderia", "id_2": 1, "Nombre_2": "Santiago" }, "geometry": { "type": "Point", "coordinates": [ -84.316004275181925, 9.84622805159494 ] } },
{ "type": "Feature", "properties": { "id": 147, "Nombre": "Panaderia San Isidro", "Tipo": "Panaderia", "id_2": 54, "Nombre_2": "Pozos" }, "geometry": { "type": "Point", "coordinates": [ -84.31420384178945, 9.843261149664542 ] } },
{ "type": "Feature", "properties": { "id": 147, "Nombre": "Panaderia San Isidro", "Tipo": "Panaderia", "id_2": 3, "Nombre_2": "Barrio San Isidro" }, "geometry": { "type": "Point", "coordinates": [ -84.31420384178945, 9.843261149664542 ] } },
{ "type": "Feature", "properties": { "id": 146, "Nombre": "Mini Super Leo", "Tipo": "Tienda de Alimentos", "id_2": 54, "Nombre_2": "Pozos" }, "geometry": { "type": "Point", "coordinates": [ -84.313717516377622, 9.842408155534306 ] } },
{ "type": "Feature", "properties": { "id": 146, "Nombre": "Mini Super Leo", "Tipo": "Tienda de Alimentos", "id_2": 3, "Nombre_2": "Barrio San Isidro" }, "geometry": { "type": "Point", "coordinates": [ -84.313717516377622, 9.842408155534306 ] } },
{ "type": "Feature", "properties": { "id": 146, "Nombre": "Panaderia Cantu", "Tipo": "Panaderia", "id_2": 54, "Nombre_2": "Pozos" }, "geometry": { "type": "Point", "coordinates": [ -84.311959965023448, 9.841069566930667 ] } },
{ "type": "Feature", "properties": { "id": 146, "Nombre": "Panaderia Cantu", "Tipo": "Panaderia", "id_2": 3, "Nombre_2": "Barrio San Isidro" }, "geometry": { "type": "Point", "coordinates": [ -84.311959965023448, 9.841069566930667 ] } },
{ "type": "Feature", "properties": { "id": 145, "Nombre": "Taller Quique", "Tipo": "Taller Mecanico", "id_2": 54, "Nombre_2": "Pozos" }, "geometry": { "type": "Point", "coordinates": [ -84.310731765189871, 9.840653344416552 ] } },
{ "type": "Feature", "properties": { "id": 145, "Nombre": "Taller Quique", "Tipo": "Taller Mecanico", "id_2": 3, "Nombre_2": "Barrio San Isidro" }, "geometry": { "type": "Point", "coordinates": [ -84.310731765189871, 9.840653344416552 ] } },
{ "type": "Feature", "properties": { "id": 144, "Nombre": "Taller Mecanico", "Tipo": "Taller Mecanico", "id_2": 54, "Nombre_2": "Pozos" }, "geometry": { "type": "Point", "coordinates": [ -84.310663966472944, 9.841884025518105 ] } },
{ "type": "Feature", "properties": { "id": 144, "Nombre": "Taller Mecanico", "Tipo": "Taller Mecanico", "id_2": 3, "Nombre_2": "Barrio San Isidro" }, "geometry": { "type": "Point", "coordinates": [ -84.310663966472944, 9.841884025518105 ] } },
{ "type": "Feature", "properties": { "id": 155, "Nombre": "Panaderia Giralda", "Tipo": "Panaderia", "id_2": 1, "Nombre_2": "Santiago" }, "geometry": { "type": "Point", "coordinates": [ -84.31295020331855, 9.846745197719082 ] } }
]
}
